{"type":"FeatureCollection", "features": [
{"type":"Feature","geometry":{"type":"Point","coordinates":[-95.26628996767224,29.79067794596655]},"properties":{"OBJECTID":15,"NAME":"DOCTOR'S HOSPITAL - EAST LOOP","ADDRNO":"09339","PREFIX":"N","STNAME":"LOOP","STTYPE":"","SUFFIX":"E","CITY":"HOUSTON","ZIP":"77029","ADMIN":2}},
{"type":"Feature","geometry":{"type":"Point","coordinates":[-95.39949646330811,29.712526009765686]},"properties":{"OBJECTID":20,"NAME":"WEST PAVILION METHODIST DIAGNOSTIC CENTER","ADDRNO":"06447","PREFIX":"","STNAME":"MAIN","STTYPE":"ST","SUFFIX":"","CITY":"HOUSTON","ZIP":"77030","ADMIN":2}},
{"type":"Feature","geometry":{"type":"Point","coordinates":[-95.40040471904206,29.707969785046114]},"properties":{"OBJECTID":21,"NAME":"ST LUKE'S EPISCOPAL HOSPITAL","ADDRNO":"06720","PREFIX":"","STNAME":"BERTNER","STTYPE":"","SUFFIX":"","CITY":"HOUSTON","ZIP":"77030","ADMIN":2}},
{"type":"Feature","geometry":{"type":"Point","coordinates":[-95.40161653422942,29.707838523746503]},"properties":{"OBJECTID":22,"NAME":"TEXAS CHILDREN HOSPITAL","ADDRNO":"06621","PREFIX":"","STNAME":"FANNIN","STTYPE":"","SUFFIX":"","CITY":"HOUSTON","ZIP":"77030","ADMIN":2}},
{"type":"Feature","geometry":{"type":"Point","coordinates":[-95.3996382551915,29.709847241311714]},"properties":{"OBJECTID":23,"NAME":"METHODIST HOSPITAL","ADDRNO":"06565","PREFIX":"","STNAME":"FANNIN","STTYPE":"","SUFFIX":"","CITY":"HOUSTON","ZIP":"77030","ADMIN":2}},
{"type":"Feature","geometry":{"type":"Point","coordinates":[-95.40092701860237,29.690732335980798]},"properties":{"OBJECTID":24,"NAME":"INTRACARE HOSPITAL","ADDRNO":"07601","PREFIX":"","STNAME":"FANNIN","STTYPE":"","SUFFIX":"","CITY":"HOUSTON","ZIP":"77054","ADMIN":2}},
{"type":"Feature","geometry":{"type":"Point","coordinates":[-95.40398271178555,29.692547822144796]},"properties":{"OBJECTID":25,"NAME":"MEDICAL CENTER HOSPITAL","ADDRNO":"08081","PREFIX":"","STNAME":"GREENBRAIR","STTYPE":"","SUFFIX":"","CITY":"HOUSTON","ZIP":"77054","ADMIN":2}},
{"type":"Feature","geometry":{"type":"Point","coordinates":[-95.39435039361514,29.710984334689694]},"properties":{"OBJECTID":26,"NAME":"BEN TAUB GENERAL HOSPITAL","ADDRNO":"01504","PREFIX":"","STNAME":"TAUB LOOP","STTYPE":"","SUFFIX":"","CITY":"HOUSTON","ZIP":"77030","ADMIN":1}},
{"type":"Feature","geometry":{"type":"Point","coordinates":[-95.39573012181165,29.713415171730198]},"properties":{"OBJECTID":28,"NAME":"MEMORIAL HERMANN HOSPITAL","ADDRNO":"06411","PREFIX":"","STNAME":"FANNIN","STTYPE":"","SUFFIX":"","CITY":"HOUSTON","ZIP":"77030","ADMIN":2}},
{"type":"Feature","geometry":{"type":"Point","coordinates":[-95.3941238227982,29.70936868076237]},"properties":{"OBJECTID":29,"NAME":"TIRR  / INSTITUTE FOR REHAB","ADDRNO":"01333","PREFIX":"","STNAME":"MOURSUND","STTYPE":"","SUFFIX":"","CITY":"HOUSTON","ZIP":"77030","ADMIN":2}},
{"type":"Feature","geometry":{"type":"Point","coordinates":[-95.40494338616584,29.70553257882451]},"properties":{"OBJECTID":30,"NAME":"SHRINERS CHILDREN HOSPITAL","ADDRNO":"06977","PREFIX":"S","STNAME":"MAIN","STTYPE":"","SUFFIX":"","CITY":"HOUSTON","ZIP":"77030","ADMIN":2}},
{"type":"Feature","geometry":{"type":"Point","coordinates":[-95.40026138161586,29.696203437925117]},"properties":{"OBJECTID":34,"NAME":"CASA A SPECIAL HOSPITAL","ADDRNO":"01803","PREFIX":"","STNAME":"OLD SPANISH TRAIL","STTYPE":"","SUFFIX":"","CITY":"HOUSTON","ZIP":"77054","ADMIN":2}},
{"type":"Feature","geometry":{"type":"Point","coordinates":[-95.39502059757538,29.708072171642563]},"properties":{"OBJECTID":40,"NAME":"TEXAS INSTITUTE OF MENTAL SCIENCE","ADDRNO":"01300","PREFIX":"","STNAME":"MOURSUND","STTYPE":"","SUFFIX":"","CITY":"HOUSTON","ZIP":"77030","ADMIN":2}},
{"type":"Feature","geometry":{"type":"Point","coordinates":[-95.40900434696427,29.700487113784792]},"properties":{"OBJECTID":41,"NAME":"TEXAS ORTHOPEDIC HOSPITAL","ADDRNO":"07401","PREFIX":"S","STNAME":"MAIN","STTYPE":"","SUFFIX":"","CITY":"HOUSTON","ZIP":"77030","ADMIN":2}},
{"type":"Feature","geometry":{"type":"Point","coordinates":[-95.40035828427767,29.707538515647684]},"properties":{"OBJECTID":45,"NAME":"TEXAS HEART INSTITUTE","ADDRNO":"01101","PREFIX":"","STNAME":"BATES","STTYPE":"","SUFFIX":"","CITY":"HOUSTON","ZIP":"77030","ADMIN":2}},
{"type":"Feature","geometry":{"type":"Point","coordinates":[-95.39910259603003,29.712969393647292]},"properties":{"OBJECTID":46,"NAME":"KINDRED HOSPITAL HOUSTON","ADDRNO":"06441","PREFIX":"","STNAME":"MAIN","STTYPE":"","SUFFIX":"","CITY":"HOUSTON","ZIP":"77030","ADMIN":2}},
{"type":"Feature","geometry":{"type":"Point","coordinates":[-95.20699974132528,29.58343175058734]},"properties":{"OBJECTID":50,"NAME":"MEMORIAL HOSPITAL - SOUTHEAST","ADDRNO":"11800","PREFIX":"","STNAME":"ASTORIA","STTYPE":"BLVD","SUFFIX":"","CITY":"HOUSTON","ZIP":"77089","ADMIN":2}},
{"type":"Feature","geometry":{"type":"Point","coordinates":[-95.13026655342334,29.66819861628905]},"properties":{"OBJECTID":53,"NAME":"HCA DEER PARK HOSPITAL","ADDRNO":"04525","PREFIX":"","STNAME":"GLENWOOD","STTYPE":"","SUFFIX":"","CITY":"DEER PARK","ZIP":"77536","ADMIN":2}},
{"type":"Feature","geometry":{"type":"Point","coordinates":[-95.41028388227585,29.698564075597083]},"properties":{"OBJECTID":67,"NAME":"GREENPARK II MEDICAL CENTER","ADDRNO":"07515","PREFIX":"","STNAME":"MAIN","STTYPE":"ST","SUFFIX":"","CITY":"HOUSTON","ZIP":"77030","ADMIN":2}},
{"type":"Feature","geometry":{"type":"Point","coordinates":[-94.97842343517539,29.75138641410534]},"properties":{"OBJECTID":68,"NAME":"GULF COAST HOSPITAL","ADDRNO":"02800","PREFIX":"","STNAME":"GARTH","STTYPE":"RD","SUFFIX":"","CITY":"","ZIP":"77521","ADMIN":2}},
{"type":"Feature","geometry":{"type":"Point","coordinates":[-95.40010601648983,29.697303012267344]},"properties":{"OBJECTID":76,"NAME":"METHODIST HOSPITAL","ADDRNO":"01130","PREFIX":"","STNAME":"EARLE","STTYPE":"","SUFFIX":"","CITY":"HOUSTON","ZIP":"77030","ADMIN":2}},
{"type":"Feature","geometry":{"type":"Point","coordinates":[-95.39847959520358,29.7111548095308]},"properties":{"OBJECTID":82,"NAME":"TEXAS MEDICAL CENTER","ADDRNO":"06519","PREFIX":"","STNAME":"FANNIN","STTYPE":"","SUFFIX":"","CITY":"HOUSTON","ZIP":"77030","ADMIN":2}},
{"type":"Feature","geometry":{"type":"Point","coordinates":[-95.3992154355128,29.71246959695852]},"properties":{"OBJECTID":87,"NAME":"AMERICAN TRANSITIONAL HOSPITAL","ADDRNO":"6447","PREFIX":"","STNAME":"MAIN","STTYPE":"ST","SUFFIX":"","CITY":"HOUSTON","ZIP":"77030","ADMIN":2}},
{"type":"Feature","geometry":{"type":"Point","coordinates":[-95.39978512276186,29.712350169362793]},"properties":{"OBJECTID":93,"NAME":"SELECT SPECIALTY HOSPITAL HOUSTON MEDICAL CENTER","ADDRNO":"6447","PREFIX":"","STNAME":"MAIN","STTYPE":"ST","SUFFIX":"","CITY":"HOUSTON","ZIP":"77030","ADMIN":2}},
{"type":"Feature","geometry":{"type":"Point","coordinates":[-95.39493351488946,29.713357631284246]},"properties":{"OBJECTID":94,"NAME":"MEMORIAL HERMANN CHILDREN'S HOSPITAL","ADDRNO":"6411","PREFIX":"","STNAME":"FANNIN","STTYPE":"","SUFFIX":"","CITY":"HOUSTON","ZIP":"77030","ADMIN":2}},
{"type":"Feature","geometry":{"type":"Point","coordinates":[-95.40232345876964,29.69308210688872]},"properties":{"OBJECTID":102,"NAME":"HCA WOMAN'S HOSPITAL OF TEXAS","ADDRNO":"7600","PREFIX":"","STNAME":"FANNIN","STTYPE":"","SUFFIX":"","CITY":"HOUSTON","ZIP":"77054","ADMIN":2}},
{"type":"Feature","geometry":{"type":"Point","coordinates":[-94.97969333721932,29.73756701505877]},"properties":{"OBJECTID":107,"NAME":"SAN JACINTO METHODIST HOSPITAL","ADDRNO":"1101","PREFIX":"","STNAME":"DECKER","STTYPE":"DR","SUFFIX":"","CITY":"","ZIP":"77520","ADMIN":2}}
]}